City,Lat,Lng,Max Temp,Humidity,Cloudiness,Wind Speed,Country,Date
lavrentiya,65.5833,-171.0,33.76,98,100,18.23,RU,1639968613
coahuayana,18.7333,-103.6833,74.34,77,63,1.7,MX,1639968613
bengkulu,-3.8004,102.2655,81.25,68,100,5.73,ID,1639968614
butaritari,3.0707,172.7902,82.15,74,95,15.61,KI,1639968614
ushuaia,-54.8,-68.3,40.66,70,40,10.36,AR,1639968614
komsomolskiy,40.4272,71.7189,38.62,70,75,6.91,UZ,1639968614
castro,-24.7911,-50.0119,54.43,93,15,5.95,BR,1639968615
kaitangata,-46.2817,169.8464,71.33,48,100,11.68,NZ,1639968615
qaanaaq,77.484,-69.3632,21.24,70,100,9.48,GL,1639968615
tasiilaq,65.6145,-37.6368,21.22,63,96,9.75,GL,1639968616
hithadhoo,-0.6,73.0833,82.49,75,98,7.74,MV,1639968616
luderitz,-26.6481,15.1594,59.0,82,3,3.83,NA,1639968616
torbay,47.6666,-52.7314,24.58,79,90,5.75,CA,1639968617
panguna,-6.3164,155.4848,78.4,81,98,2.17,PG,1639968617
georgetown,5.4112,100.3354,84.13,74,20,5.99,MY,1639968351
muros,42.7762,-9.0603,55.9,86,100,9.91,ES,1639968617
kotma,23.2,81.9667,51.96,32,0,3.24,IN,1639968381
constitucion,-35.3333,-72.4167,57.67,81,48,11.27,CL,1639968618
crotone,39.0851,17.1178,44.92,60,0,3.36,IT,1639968618
atuona,-9.8,-139.0333,77.85,75,4,12.62,PF,1639968618
sayyan,15.1718,44.3244,48.22,39,5,1.21,YE,1639968619
saint-philippe,-21.3585,55.7679,80.47,83,37,7.07,RE,1639968619
cidreira,-30.1811,-50.2056,70.38,82,0,22.66,BR,1639968619
hasaki,35.7333,140.8333,52.29,43,0,7.18,JP,1639968619
salalah,17.0151,54.0924,67.78,80,11,4.83,OM,1639968620
arraial do cabo,-22.9661,-42.0278,72.16,79,54,9.69,BR,1639968620
port alfred,-33.5906,26.891,65.95,91,78,9.01,ZA,1639968620
rikitea,-23.1203,-134.9692,74.5,85,100,15.17,PF,1639968620
nikolskoye,59.7035,30.7861,19.4,91,100,11.27,RU,1639968621
zhigansk,66.7697,123.3711,-41.58,97,99,4.23,RU,1639968621
upernavik,72.7868,-56.1549,23.52,71,94,8.93,GL,1639968621
makasar,-5.14,119.4221,84.25,84,20,2.3,ID,1639968332
kapaa,22.0752,-159.319,80.58,83,90,7.0,US,1639968621
abbeville,50.1,1.8333,44.56,76,100,9.55,FR,1639968622
paamiut,61.994,-49.6678,43.21,51,100,17.11,GL,1639968622
lichtenburg,-26.152,26.1597,54.25,94,56,6.98,ZA,1639968433
kozmodemyansk,56.3367,46.5711,25.63,96,100,10.22,RU,1639968622
klaksvik,62.2266,-6.589,40.12,82,100,10.87,FO,1639968623
lompoc,34.6391,-120.4579,51.12,85,20,1.01,US,1639968623
vikhorevka,56.1201,101.1636,-29.61,95,34,1.25,RU,1639968623
punta arenas,-53.15,-70.9167,44.71,81,75,13.8,CL,1639968623
namatanai,-3.6667,152.4333,81.07,79,94,3.62,PG,1639968624
bambous virieux,-20.3428,57.7575,80.22,83,40,5.75,MU,1639968624
ponta delgada,37.7333,-25.6667,57.92,88,75,19.57,PT,1639968624
snezhnogorsk,69.1933,33.2531,6.58,79,100,19.8,RU,1639968625
hermanus,-34.4187,19.2345,66.9,81,99,17.63,ZA,1639968625
hilo,19.7297,-155.09,74.12,46,90,0.0,US,1639968354
vaini,-21.2,-175.2,87.96,79,40,10.36,TO,1639968625
callaguip,18.0714,120.4867,86.02,62,75,3.44,PH,1639968625
tuatapere,-46.1333,167.6833,63.82,88,100,13.6,NZ,1639968656
nicoya,10.1483,-85.452,78.35,84,0,6.76,CR,1639968656
nantong,32.0303,120.8747,52.88,38,12,7.92,CN,1639968656
dikson,73.5069,80.5464,-29.76,99,89,3.85,RU,1639968657
ancud,-41.8697,-73.8203,58.53,94,15,1.63,CL,1639968657
hobart,-42.8794,147.3294,67.86,45,75,24.16,AU,1639968550
ukiah,39.1502,-123.2078,48.63,77,90,5.75,US,1639968657
turner,44.2565,-70.2562,24.69,76,4,3.0,US,1639968657
new norfolk,-42.7826,147.0587,67.5,78,100,16.4,AU,1639968658
tocopilla,-22.092,-70.1979,66.78,76,62,1.74,CL,1639968658
nkhotakota,-12.9274,34.2961,75.07,83,100,10.11,MW,1639968658
albemarle,35.3501,-80.2001,45.75,97,40,4.61,US,1639968658
kasongo-lunda,-6.4667,16.8167,70.47,97,100,1.01,CD,1639968659
barrow,71.2906,-156.7887,6.82,78,90,33.38,US,1639968659
srednekolymsk,67.45,153.6833,-31.29,96,100,22.1,RU,1639968659
albany,42.6001,-73.9662,24.75,74,13,11.01,US,1639968660
cape town,-33.9258,18.4232,70.11,73,0,3.0,ZA,1639968660
kodiak,57.79,-152.4072,32.83,82,19,5.17,US,1639968660
son la,21.3167,103.9,62.4,57,35,0.87,VN,1639968660
chokurdakh,70.6333,147.9167,-2.22,96,100,15.05,RU,1639968660
hobyo,5.3505,48.5268,78.4,77,56,17.52,SO,1639968661
te anau,-45.4167,167.7167,57.97,90,100,11.81,NZ,1639968641
thompson,55.7435,-97.8558,-9.24,84,75,6.91,CA,1639968661
kosh-agach,50.0,88.6667,5.11,67,100,1.9,RU,1639968661
nara,34.6851,135.8049,51.08,95,8,9.01,JP,1639968636
husavik,66.0449,-17.3389,42.71,87,100,6.13,IS,1639968662
asuncion,-25.3007,-57.6359,83.89,70,0,0.0,PY,1639968662
manacapuru,-3.2997,-60.6206,79.38,94,100,1.32,BR,1639968662
faanui,-16.4833,-151.75,80.26,76,26,9.89,PF,1639968662
lazne belohrad,50.4287,15.5827,35.65,79,5,7.87,CZ,1639968663
mount gambier,-37.8333,140.7667,69.71,46,0,21.85,AU,1639968663
panaba,21.2833,-88.2667,73.18,89,100,6.78,MX,1639968664
vestmannaeyjar,63.4427,-20.2734,45.72,82,100,4.36,IS,1639968664
cherskiy,68.75,161.3,-24.0,97,100,21.88,RU,1639968664
iqaluit,63.7506,-68.5145,-4.27,70,20,5.99,CA,1639968664
chuy,-33.6971,-53.4616,65.79,88,0,9.64,UY,1639968665
east london,-33.0153,27.9116,66.36,86,34,10.71,ZA,1639968665
isangel,-19.55,169.2667,87.91,79,40,11.5,VU,1639968665
morehead,37.2711,-87.1764,34.14,85,1,0.0,US,1639968665
capim grosso,-11.3811,-40.0128,71.55,83,98,4.09,BR,1639968666
jamestown,42.097,-79.2353,26.71,89,40,0.0,US,1639968666
avarua,-21.2078,-159.775,82.45,69,75,6.91,CK,1639968666
ahuimanu,21.4447,-157.8378,80.31,68,75,14.97,US,1639968666
yinchuan,38.4681,106.2731,35.49,18,0,3.94,CN,1639968605
batemans bay,-35.7167,150.1833,86.99,57,4,10.47,AU,1639968667
flin flon,54.7682,-101.865,2.26,92,100,10.2,CA,1639968667
nagua,19.3832,-69.8474,73.45,91,79,5.91,DO,1639968667
victoria,22.2855,114.1577,62.65,80,100,5.01,HK,1639968635
svolvaer,68.2342,14.5683,30.38,67,14,7.11,NO,1639968607
mataura,-46.1927,168.8643,63.48,81,94,12.86,NZ,1639968698
nouakchott,18.0858,-15.9785,71.53,49,100,13.29,MR,1639968698
canaries,28.0,-15.5,57.4,82,20,10.36,ES,1639968699
saint george,37.1041,-113.5841,40.32,59,1,1.01,US,1639968699
boshnyakovo,49.6333,142.1667,12.2,81,100,5.61,RU,1639968700
bambanglipuro,-7.95,110.2833,77.43,90,100,4.7,ID,1639968700
katsuura,35.1333,140.3,48.31,44,0,4.5,JP,1639968700
mar del plata,-38.0023,-57.5575,68.09,94,0,3.0,AR,1639968701
leningradskiy,69.3833,178.4167,-2.2,87,100,9.17,RU,1639968701
olafsvik,64.8945,-23.7142,41.31,78,100,2.84,IS,1639968702
vardo,70.3705,31.1107,28.35,68,100,23.42,NO,1639968702
teya,60.3778,92.6267,-36.44,98,26,2.46,RU,1639968702
manokwari,-0.8667,134.0833,83.61,70,99,4.09,ID,1639968566
fairbanks,64.8378,-147.7164,21.6,89,90,3.44,US,1639968703
bluff,-46.6,168.3333,63.81,84,99,30.65,NZ,1639968703
busselton,-33.65,115.3333,81.05,35,0,6.53,AU,1639968703
sao joao da ponte,-15.9292,-44.0078,67.23,98,72,2.46,BR,1639968703
bethel,41.3712,-73.414,29.05,69,1,1.99,US,1639968704
kavaratti,10.5669,72.642,81.03,72,4,7.09,IN,1639968704
nuuk,64.1835,-51.7216,37.83,66,100,13.04,GL,1639968704
saurimo,-9.6608,20.3916,64.98,98,100,1.92,AO,1639968704
honiara,-9.4333,159.95,84.61,75,99,4.36,SB,1639968705
ust-tsilma,65.441,52.1498,3.78,93,100,6.89,RU,1639968705
kieta,-6.2167,155.6333,83.8,79,100,4.47,PG,1639968705
zhaoyuan,37.3592,120.3964,46.87,36,2,7.09,CN,1639968705
caravelas,-17.7125,-39.2481,72.95,92,95,4.81,BR,1639968706
mumford,5.2618,-0.759,78.48,73,90,5.19,GH,1639968542
hovd,48.0056,91.6419,17.46,54,100,4.27,MN,1639968706
geraldton,-28.7667,114.6,81.01,44,4,13.8,AU,1639968706
sierra vista,31.5545,-110.3037,49.23,50,1,0.0,US,1639968707
juneau,58.3019,-134.4197,26.22,95,44,6.78,US,1639968707
ovsyanka,55.9575,92.5519,-7.78,98,100,4.07,RU,1639968707
khatanga,71.9667,102.5,-11.7,98,100,11.41,RU,1639968708
laguna,38.421,-121.4238,46.22,89,40,4.61,US,1639968709
san cristobal,7.7669,-72.225,69.98,93,87,1.63,VE,1639968709
esperance,-33.8667,121.9,78.64,47,48,8.16,AU,1639968640
urumqi,43.801,87.6005,23.59,63,31,5.75,CN,1639968709
saskylakh,71.9167,114.0833,-7.92,98,100,9.82,RU,1639968709
buin,-33.7333,-70.75,78.73,60,0,1.54,CL,1639968710
yellowknife,62.456,-114.3525,-21.48,76,75,6.91,CA,1639968740
san policarpo,12.1791,125.5072,82.15,81,71,9.51,PH,1639968740
kloulklubed,7.0419,134.2556,83.46,77,96,20.13,PW,1639968740
griffith,41.5284,-87.4237,32.4,84,1,1.01,US,1639968741
la ronge,55.1001,-105.2842,-10.95,70,90,12.66,CA,1639968741
ketchikan,55.3422,-131.6461,27.07,80,1,10.36,US,1639968741
puerto ayora,-0.7393,-90.3518,69.67,92,100,7.0,EC,1639968742
saint-pierre,-21.3393,55.4781,80.56,83,90,3.44,RE,1639968742
kota kinabalu,5.9749,116.0724,82.38,78,20,12.66,MY,1639968505
lubango,-14.9172,13.4925,59.58,83,35,2.91,AO,1639968744
yumen,40.2833,97.2,31.98,18,0,12.55,CN,1639968745
alofi,-19.0595,-169.9187,84.09,65,42,16.11,NU,1639968745
at-bashi,41.1702,75.8106,16.63,71,95,2.62,KG,1639968745
necochea,-38.5473,-58.7368,61.56,88,0,5.99,AR,1639968745
karavayevo,55.2961,37.9622,23.25,85,75,15.66,RU,1639968746
tiksi,71.6872,128.8694,-15.56,100,100,3.71,RU,1639968746
omboue,-1.5746,9.2618,77.02,90,87,3.02,GA,1639968746
talnakh,69.4865,88.3972,-33.29,95,77,2.44,RU,1639968747
pimenta bueno,-11.6725,-61.1936,73.17,99,100,2.64,BR,1639968747
grado,43.388,-6.0743,47.25,86,0,10.36,ES,1639968748
coihaique,-45.5752,-72.0662,56.01,82,0,4.76,CL,1639968748
velsk,61.0701,42.0983,2.23,95,100,10.04,RU,1639968748
grand gaube,-20.0064,57.6608,80.38,76,80,1.99,MU,1639968748
southbridge,42.0751,-72.0334,26.92,75,5,3.0,US,1639968749
port elizabeth,-33.918,25.5701,65.1,88,0,6.91,ZA,1639968749
flinders,-34.5833,150.8552,87.8,67,10,9.4,AU,1639968749
asau,46.4333,26.4,36.52,91,80,2.66,RO,1639968749
acapulco,16.8634,-99.8901,78.42,79,75,6.22,MX,1639968643
mahebourg,-20.4081,57.7,80.26,83,40,5.75,MU,1639968750
edd,13.9297,41.6925,78.37,61,93,13.96,ER,1639968750
mehamn,71.0357,27.8492,28.06,65,100,15.08,NO,1639968750
almeirim,-1.5233,-52.5817,75.42,93,93,3.0,BR,1639968750
grindavik,63.8424,-22.4338,43.27,100,90,6.91,IS,1639968522
walvis bay,-22.9575,14.5053,62.1,94,89,6.91,NA,1639968751
banda aceh,5.5577,95.3222,78.58,86,100,20.36,ID,1639968727
ponta do sol,32.6667,-17.1,69.01,91,100,18.77,PT,1639968751
moose jaw,50.4001,-105.5344,3.45,72,80,17.27,CA,1639968751
kodinsk,58.6881,99.1844,-35.75,97,38,1.03,RU,1639968752
yaring,6.8662,101.3689,83.14,72,95,6.62,TH,1639968752
giyon,8.5333,37.9833,56.21,81,98,7.9,ET,1639968752
palana,59.1167,159.9667,8.53,80,98,11.18,RU,1639968752
mount isa,-20.7333,139.5,96.57,26,0,6.91,AU,1639968752
inirida,3.8653,-67.9239,74.71,96,100,1.23,CO,1639968753
kanepi,57.982,26.7627,23.05,80,100,13.22,EE,1639968753
bredasdorp,-34.5322,20.0403,65.52,82,100,12.66,ZA,1639968753
adrar,20.5022,-10.0711,70.32,32,100,11.86,MR,1639968754
tilichiki,60.4667,166.1,-18.26,97,40,6.85,RU,1639968754
sitka,57.0531,-135.33,28.29,74,1,6.91,US,1639968754
lebu,-37.6167,-73.65,56.84,94,27,16.11,CL,1639968754
itacoatiara,-3.1431,-58.4442,75.24,96,100,1.97,BR,1639968784
kismayo,-0.3582,42.5454,79.93,86,25,11.68,SO,1639968785
buchanan,5.8808,-10.0467,76.96,85,12,7.4,LR,1639968785
arlit,18.7369,7.3853,56.75,27,2,3.91,NE,1639968785
comodoro rivadavia,-45.8667,-67.5,55.26,67,0,11.5,AR,1639968785
airai,-8.9266,125.4092,74.01,67,100,2.01,TL,1639968786
dingle,10.9995,122.6711,84.79,72,54,10.56,PH,1639968786
henties bay,-22.116,14.2845,61.86,81,60,3.11,NA,1639968786
sun valley,39.5963,-119.776,34.39,82,20,1.01,US,1639968786
tessalit,20.1986,1.0114,63.18,23,55,9.06,ML,1639968787
aklavik,68.2191,-135.0107,-1.37,100,99,7.54,CA,1639968787
kavieng,-2.5744,150.7967,82.72,75,82,2.17,PG,1639968787
kuusamo,65.9667,29.1833,-0.36,85,20,6.91,FI,1639968619
saldanha,-33.0117,17.9442,60.85,84,94,3.8,ZA,1639968788
bulungu,-4.55,18.6,70.88,96,92,0.63,CD,1639968788
kandi,11.1342,2.9386,65.12,26,0,6.62,BJ,1639968788
harper,4.375,-7.7169,79.25,84,61,9.01,LR,1639968788
tuktoyaktuk,69.4541,-133.0374,-14.8,76,90,19.57,CA,1639968789
champerico,14.3,-91.9167,80.76,79,2,7.94,GT,1639968789
hun,29.1268,15.9477,43.72,60,0,3.18,LY,1639968790
teavaro,-17.5,-149.7667,81.88,69,40,5.75,PF,1639968790
clyde river,70.4692,-68.5914,8.83,92,100,11.5,CA,1639968790
denpasar,-8.65,115.2167,83.86,83,40,4.61,ID,1639968602
noumea,-22.2763,166.4572,87.78,99,48,15.39,NC,1639968791
zhangzhou,24.5133,117.6556,61.14,56,100,1.23,CN,1639968506
guerrero negro,27.9769,-114.0611,59.31,54,0,8.19,MX,1639968791
olinda,-8.0089,-34.8553,82.13,74,40,8.05,BR,1639968791
elk river,45.3038,-93.5672,31.05,73,100,1.99,US,1639968791
tamworth,52.634,-1.6959,41.83,95,100,1.01,GB,1639968792
nezhinka,51.7676,55.3694,28.56,86,90,15.66,RU,1639968792
ekhabi,53.5102,142.9671,0.43,70,2,9.06,RU,1639968792
stillwater,36.1156,-97.0584,38.61,71,0,1.01,US,1639968792
north bend,43.4065,-124.2243,52.92,100,90,10.36,US,1639968793
vostok,46.4856,135.8833,9.63,86,99,3.33,RU,1639968793
fortuna,40.5982,-124.1573,54.66,84,20,8.01,US,1639968793
port hardy,50.6996,-127.4199,39.2,80,20,3.44,CA,1639968793
ilulissat,69.2167,-51.1,26.37,69,100,8.48,GL,1639968793
kahului,20.8947,-156.47,76.26,90,75,19.57,US,1639968794
porto santo,33.072,-16.3415,68.31,82,40,31.07,PT,1639968794
kahna nau,31.3692,74.3653,41.04,87,5,0.0,PK,1639968794
belgrade,44.804,20.4651,36.54,79,0,5.01,RS,1639968730
nabire,-3.3667,135.4833,87.49,63,39,5.1,ID,1639968794
mokhotlong,-29.2894,29.0675,46.29,91,17,0.94,LS,1639968795
shellbrook,53.2168,-106.4011,-8.37,90,86,12.3,CA,1639968795
aripuana,-9.1667,-60.6333,74.14,99,100,2.39,BR,1639968795
boca do acre,-8.7522,-67.3978,73.58,99,100,3.06,BR,1639968795
demerval lobao,-5.3583,-42.6764,83.61,92,99,2.26,BR,1639968796
mackay,-21.15,149.2,90.68,62,14,10.36,AU,1639968551
moerai,-22.4333,-151.3333,78.3,72,0,16.2,PF,1639968827
bathurst,-33.4166,149.5806,83.97,44,50,4.0,AU,1639968827
high level,58.5169,-117.136,1.51,92,75,2.3,CA,1639968827
dunedin,-45.8742,170.5036,73.2,46,66,24.99,NZ,1639968618
abalak,58.1286,68.5944,13.6,94,100,11.32,RU,1639968828
pitimbu,-7.4706,-34.8086,79.39,77,54,9.46,BR,1639968828
beringovskiy,63.05,179.3167,3.04,88,100,9.91,RU,1639968828
svetlaya,46.5389,138.3297,15.98,53,44,2.24,RU,1639968828
santa cruz de la palma,28.6835,-17.7642,69.94,46,0,6.91,ES,1639968829
quelimane,-17.8786,36.8883,75.15,94,75,5.99,MZ,1639968829
kirkwall,58.9848,-2.9587,41.34,87,90,1.14,GB,1639968829
longyearbyen,78.2186,15.6401,24.64,74,75,8.05,SJ,1639968829
narsaq,60.9167,-46.05,34.36,64,100,15.37,GL,1639968830
cairns,-16.9167,145.7667,101.07,44,73,13.8,AU,1639968830
kuytun,54.3419,101.5036,-19.82,99,29,2.35,RU,1639968830
north platte,41.1239,-100.7654,39.38,44,5,1.99,US,1639968830
susurluk,39.9136,28.1578,39.83,87,25,4.09,TR,1639968830
vila franca do campo,37.7167,-25.4333,57.61,90,99,15.35,PT,1639968831
sao felix do xingu,-6.6447,-51.995,72.27,98,100,0.56,BR,1639968831
parintins,-2.6283,-56.7358,75.9,76,96,2.21,BR,1639968831
coruripe,-10.1256,-36.1756,78.21,82,38,10.96,BR,1639968832
koslan,63.4564,48.8989,1.2,94,100,7.74,RU,1639968832
pangody,65.85,74.4859,-28.91,86,69,10.16,RU,1639968832
aksay,47.26,39.87,37.62,96,100,15.86,RU,1639968832
zagare,56.3592,23.25,30.96,88,100,14.94,LT,1639968833
port hedland,-20.3167,118.5667,93.25,66,75,27.63,AU,1639968833
korla,41.7597,86.1469,23.4,54,47,1.63,CN,1639968833
hami,42.8,93.45,26.08,46,0,0.51,CN,1639968833
macamic,48.7502,-78.9996,-0.17,76,100,9.17,CA,1639968834
ayagoz,47.9714,80.4392,25.7,96,100,12.28,KZ,1639968834
taywarah,33.35,64.4167,33.84,96,98,1.99,AF,1639968835
karratha,-20.7377,116.8463,93.24,50,9,21.5,AU,1639968835
raudeberg,61.9875,5.1352,37.87,92,93,1.99,NO,1639968835
qui nhon,13.7667,109.2333,76.6,74,99,2.93,VN,1639968662
yerbogachen,61.2767,108.0108,-38.16,99,88,3.71,RU,1639968835
muhos,64.808,25.9931,6.58,91,7,4.38,FI,1639968836
inhambane,-23.865,35.3833,72.34,80,99,8.08,MZ,1639968837
vila velha,-20.3297,-40.2925,69.75,94,90,2.3,BR,1639968837
turbat,26.0023,63.044,63.21,80,79,1.45,PK,1639968837
saint anthony,45.0205,-93.218,30.88,73,100,5.01,US,1639968837
chapais,49.7834,-74.8492,-0.62,100,76,1.59,CA,1639968837
dubbo,-32.25,148.6167,86.13,54,53,8.05,AU,1639968838
kysyl-syr,63.8986,122.7617,-28.5,96,100,5.99,RU,1639968838
tucdao,11.7011,124.4719,82.06,77,37,8.5,PH,1639968838
oranjemund,-28.55,16.4333,60.64,85,1,4.97,NA,1639968838
lima,-12.0432,-77.0282,65.89,81,75,8.05,PE,1639968869
dashitou,43.3067,128.5114,28.65,59,100,13.49,CN,1639968747
dzilam gonzalez,21.2833,-88.9333,73.36,88,100,6.35,MX,1639968869
port blair,11.6667,92.75,81.57,71,64,8.34,IN,1639968869
san quintin,30.4833,-115.95,56.79,61,2,4.0,MX,1639968869
dabra,25.9,78.3333,52.3,30,2,2.59,IN,1639968870
iskateley,67.6803,53.1512,-8.01,92,99,9.89,RU,1639968870
polunochnoye,60.8697,60.4153,-6.95,96,100,9.04,RU,1639968870
ahipara,-35.1667,173.1667,70.29,62,59,6.64,NZ,1639968870
norman wells,65.282,-126.8329,1.44,78,90,4.61,CA,1639968871
west wendover,40.7391,-114.0733,25.81,74,20,0.0,US,1639968871
san rafael,-34.6177,-68.3301,79.97,48,0,5.08,AR,1639968871
severo-kurilsk,50.6789,156.125,27.52,79,87,14.65,RU,1639968871
kudahuvadhoo,2.6708,72.8944,81.75,78,100,15.17,MV,1639968871
balabac,7.9868,117.0645,83.35,74,100,6.04,PH,1639968872
tygda,53.1167,126.3333,-4.54,91,100,9.98,RU,1639968872
puerto escondido,15.85,-97.0667,79.38,78,100,4.94,MX,1639968872
nanortalik,60.1432,-45.2371,39.13,72,100,27.87,GL,1639968872
bassar,9.25,0.7833,67.55,25,7,3.76,TG,1639968872
tel aviv-yafo,32.0805,34.7805,58.21,50,0,13.8,IL,1639968873
castanos,26.7833,-101.4167,51.19,54,85,3.09,MX,1639968873
kashan,33.9831,51.4364,47.79,66,59,0.98,IR,1639968873
yarmouth,41.7057,-70.2286,35.15,77,90,28.99,US,1639968873
muchkapskiy,51.8513,42.4717,27.88,95,99,8.28,RU,1639968874
paracuru,-3.41,-39.0306,81.1,78,74,10.94,BR,1639968874
taihe,30.8712,105.3845,50.2,62,4,3.49,CN,1639968874
tuensang,26.2833,94.8333,64.02,59,0,1.16,IN,1639968754
lahij,13.1667,44.5833,67.44,82,50,3.96,YE,1639968875
tokur,53.1333,132.9,-7.13,92,100,2.15,RU,1639968875
hambantota,6.1241,81.1185,75.54,94,38,4.61,LK,1639968875
hervey bay,-25.2986,152.8535,89.04,59,89,7.47,AU,1639968875
sangre grande,10.5835,-61.1177,79.18,83,99,9.75,TT,1639968876
provideniya,64.3833,-173.3,33.91,93,90,20.13,RU,1639968876
pangnirtung,66.1451,-65.7125,12.2,85,90,6.91,CA,1639968876
digoin,46.4812,3.9795,35.13,100,90,1.14,FR,1639968876
giddarbaha,30.2,74.6667,50.5,16,4,4.14,IN,1639968877
port lincoln,-34.7333,135.8667,70.47,51,16,9.73,AU,1639968838
soyo,-6.1349,12.3689,77.41,89,83,8.28,AO,1639968877
itoman,26.1247,127.6694,66.97,52,40,5.75,JP,1639968877
souillac,-20.5167,57.5167,80.37,83,40,5.75,MU,1639968878
aras,42.5617,-2.356,32.72,100,90,2.3,ES,1639968878
nhulunbuy,-12.2333,136.7667,92.01,49,40,12.66,AU,1639968878
kankon,15.0167,74.0167,72.9,54,5,8.3,IN,1639968878
xiaoweizhai,26.1903,107.5125,53.64,68,37,3.8,CN,1639968879
golden,39.7555,-105.2211,47.68,23,75,1.99,US,1639968879
thomasville,35.8826,-80.082,39.97,87,33,7.07,US,1639968879
haines junction,60.7522,-137.5108,-18.45,69,100,1.14,CA,1639968909
naze,28.3667,129.4833,63.52,47,40,3.65,JP,1639968840
langholm,55.151,-2.9989,39.0,82,91,5.64,GB,1639968910
bakel,14.905,-12.4568,82.0,12,100,19.51,SN,1639968910
tucurui,-3.7661,-49.6725,74.61,97,100,2.95,BR,1639968910
qaqortoq,60.7167,-46.0333,34.81,64,100,16.15,GL,1639968911
abu dhabi,24.4667,54.3667,67.96,75,0,5.75,AE,1639968641
port hawkesbury,45.6169,-61.3485,30.15,80,90,1.99,CA,1639968911
dzhebariki-khaya,62.2167,135.8,-29.85,94,100,2.84,RU,1639968911
pisco,-13.7,-76.2167,68.05,83,0,5.75,PE,1639968912
christiana,-27.914,25.1611,61.23,78,24,6.46,ZA,1639968912
namibe,-15.1961,12.1522,68.76,71,56,8.34,AO,1639968912
moctezuma,29.8,-109.6667,56.62,44,0,2.15,MX,1639968912
invermere,50.5167,-116.0354,9.75,97,98,1.68,CA,1639968913
gamba,-2.65,10.0,76.3,91,100,5.12,GA,1639968913
roald,62.5833,6.1333,39.0,93,75,5.75,NO,1639968913
aden,12.7794,45.0367,77.16,71,57,14.27,YE,1639968913
sarab,38.6066,44.9883,35.74,67,4,5.79,IR,1639968914
rocha,-34.4833,-54.3333,62.47,96,2,7.23,UY,1639968914
whitefish,48.4111,-114.3376,12.99,92,100,5.48,US,1639968914
santiago de cao,-7.9589,-79.2392,64.53,82,99,10.36,PE,1639968914
alausi,-2.2,-78.8333,50.77,96,100,0.4,EC,1639968915
agadez,19.75,10.25,53.89,37,0,10.16,NE,1639968915
altay,47.8667,88.1167,25.79,70,99,3.13,CN,1639968916
skibbereen,51.55,-9.2667,46.2,82,100,19.15,IE,1639968917
solone,48.2081,34.8721,37.45,88,98,8.41,UA,1639968917
fuyang,32.9,115.8167,56.5,25,59,13.42,CN,1639968648
kiama,-34.6833,150.8667,88.0,66,14,14.0,AU,1639968917
launceston,-41.45,147.1667,69.44,49,75,33.38,AU,1639968791
sorland,67.667,12.6934,39.79,54,98,16.44,NO,1639968918
okha,53.5739,142.9478,-0.04,74,6,10.11,RU,1639968918
clarksville,36.5298,-87.3595,37.18,84,1,5.75,US,1639968918
dandong,40.1292,124.3947,40.41,66,5,5.75,CN,1639968756
creel,27.75,-107.6333,33.89,62,1,0.94,MX,1639968919
moose factory,51.2585,-80.6094,3.18,78,90,11.5,CA,1639968919
tonantins,-2.8731,-67.8022,75.13,98,100,2.26,BR,1639968920
khandyga,62.6667,135.6,-33.34,92,100,2.46,RU,1639968920
bathsheba,13.2167,-59.5167,79.41,73,20,24.16,BB,1639968920
ust-nera,64.5667,143.2,-40.67,99,92,1.39,RU,1639968920
ruteng,-8.6136,120.4721,73.89,73,100,0.45,ID,1639968921
sabang,5.8933,95.3214,79.72,85,100,27.67,ID,1639968921
mudbidri,13.0833,74.9833,71.22,60,3,5.75,IN,1639968921
gornopravdinsk,60.05,69.9,5.13,94,100,11.99,RU,1639968921
elizabeth city,36.2946,-76.2511,42.98,90,70,14.0,US,1639968953
pangai,-19.8,-174.35,86.11,66,40,16.11,TO,1639968953
palmer,42.1584,-72.3287,27.0,65,1,3.0,US,1639968953
copala,16.65,-98.9833,77.04,79,75,6.31,MX,1639968953
nome,64.5011,-165.4064,35.67,87,90,26.46,US,1639968954
san andres,12.5847,-81.7006,82.42,78,20,11.5,CO,1639968954
layou,13.2,-61.2667,78.28,76,42,19.35,VC,1639968954
kaeo,-35.1,173.7833,71.85,58,72,8.14,NZ,1639968954
maltahohe,-24.8333,16.9833,61.61,30,40,4.83,NA,1639968954
beira,-19.8436,34.8389,74.08,79,89,7.85,MZ,1639968955
mikhaylovka,50.06,43.2379,34.79,97,100,16.91,RU,1639968955
pachora,20.6667,75.35,63.18,32,1,5.23,IN,1639968955
point pleasant,40.0832,-74.0682,32.23,64,1,5.99,US,1639968955
margate,51.3813,1.3862,44.69,93,100,3.0,GB,1639968955
tual,-5.6667,132.75,84.38,68,92,2.15,ID,1639968956
moshenskoye,58.5102,34.5911,10.53,90,100,12.15,RU,1639968956
ballina,-28.8667,153.5667,91.58,58,93,11.5,AU,1639968956
kurgan,55.45,65.3333,25.27,93,94,11.45,RU,1639968943
saint-joseph,-21.3667,55.6167,79.47,84,38,6.29,RE,1639968957
leh,34.1667,77.5833,1.49,43,0,3.29,IN,1639968868
carahue,-38.7,-73.1667,57.4,94,15,2.21,CL,1639968957
sur,22.5667,59.5289,67.96,66,23,2.15,OM,1639968957
uvira,-3.4067,29.1458,72.5,86,100,3.53,CD,1639968958
carnarvon,-24.8667,113.6333,82.47,57,0,13.8,AU,1639968958
jardim,-21.4803,-56.1381,73.8,88,100,3.2,BR,1639968958
zambezi,-13.5432,23.1047,63.19,97,100,3.67,ZM,1639968959
skjervoy,70.0311,20.9714,29.23,69,98,6.29,NO,1639968959
sarkand,45.41,79.9186,32.88,72,100,6.46,KZ,1639968959
rudnya,54.947,31.0934,20.03,89,100,13.29,RU,1639968959
saint-augustin,51.226,-58.6502,8.96,72,11,10.29,CA,1639968960
totskoye,52.5248,52.7623,26.46,92,100,20.18,RU,1639968960
meulaboh,4.1363,96.1285,76.19,88,100,3.44,ID,1639968960
nioro,13.35,-15.75,75.45,17,51,7.92,GM,1639968960
vallenar,-28.5708,-70.7581,66.65,67,100,3.18,CL,1639968961
aljezur,37.3191,-8.8033,60.26,93,100,11.03,PT,1639968962
tutayev,57.8853,39.5406,18.88,92,100,13.33,RU,1639968962
zyryanka,65.75,150.85,-41.89,96,69,9.42,RU,1639968962
iwanai,42.9744,140.5089,32.07,66,100,14.65,JP,1639968962
ames,42.0347,-93.6199,31.3,82,1,3.0,US,1639968963
bonavista,48.6499,-53.1147,25.12,78,100,15.73,CA,1639968963
ugoofaaru,5.6667,73.0,82.45,74,45,15.01,MV,1639968964
riyadh,24.6877,46.7219,62.74,47,100,11.32,SA,1639968754
dabeiba,7.0017,-76.2672,72.95,98,99,1.68,CO,1639968964
mirandopolis,-21.1336,-51.1017,70.92,77,1,8.03,BR,1639968964
port augusta,-32.5,137.7667,81.72,32,2,14.0,AU,1639968964
sterling,39.0062,-77.4286,35.46,70,1,8.99,US,1639968965
ocos,14.5094,-92.1933,80.73,79,2,5.88,GT,1639968995
mahibadhoo,3.7833,72.9667,82.89,73,100,17.34,MV,1639968995
kiblawan,6.6142,125.2367,85.6,66,98,3.51,PH,1639968995
sale,34.0389,-6.8166,55.42,76,36,0.0,MA,1639968782
santa cruz de tenerife,28.4682,-16.2546,72.01,81,75,3.0,ES,1639968996
alyangula,-13.8483,136.4192,78.67,73,75,11.5,AU,1639968996
fort nelson,58.8053,-122.7002,7.57,95,100,2.44,CA,1639968996
high prairie,55.4334,-116.4858,2.5,97,47,3.38,CA,1639968996
bardsir,29.9227,56.5743,39.25,48,90,6.62,IR,1639968997
camacha,33.0833,-16.3333,65.53,82,40,31.07,PT,1639968997
parana,-31.732,-60.5238,82.56,58,49,8.3,AR,1639968997
kununurra,-15.7667,128.7333,94.98,52,85,11.5,AU,1639968997
rosarito,32.3333,-117.0333,55.42,71,2,3.74,MX,1639968998
kulunda,52.566,78.9385,28.24,92,99,14.07,RU,1639968998
simao,22.7886,100.9748,61.77,57,0,1.86,CN,1639968998
biltine,14.5333,20.9167,64.04,27,6,9.35,TD,1639968998
whitehorse,60.7161,-135.0538,-3.98,79,20,5.99,CA,1639968999
zaranj,30.9667,61.8833,37.36,18,14,1.92,AF,1639968999
kifri,34.6959,44.9661,53.44,57,100,8.1,IQ,1639968999
beloha,-25.1667,45.05,67.41,71,95,10.92,MG,1639968999
zelenyy bor,53.6667,91.6667,15.98,88,100,2.13,RU,1639969000
okhotsk,59.3833,143.3,4.06,95,100,13.53,RU,1639969000
nizhniy ingash,56.2,96.53,-22.31,96,21,5.91,RU,1639969001
sindor,62.8629,51.8905,0.07,91,100,8.05,RU,1639969001
pierre,44.3683,-100.351,36.28,74,75,11.01,US,1639969001
gravdal,68.1214,13.5031,37.06,56,53,12.08,NO,1639969001
kemin,42.7846,75.6892,35.15,91,100,5.01,KG,1639969002
huangchuan,32.1272,115.0394,56.43,24,94,12.01,CN,1639969002
nyagan,62.1406,65.3936,0.3,96,100,9.84,RU,1639969003
benjamin aceval,-24.9667,-57.5667,84.6,49,55,4.68,PY,1639969003
bilgoraj,50.5411,22.722,33.85,85,99,13.33,PL,1639969004
quang ngai,15.1167,108.8,74.43,80,91,3.89,VN,1639968833
bucerias,20.75,-105.3333,74.98,90,19,4.07,MX,1639968751
gat,31.61,34.7642,56.91,44,16,18.48,IL,1639969004
sao filipe,14.8961,-24.4956,73.02,80,100,7.43,CV,1639969004
havelock,34.8791,-76.9013,44.58,90,100,5.01,US,1639969005
fengrun,39.8333,118.1167,35.74,32,0,4.03,CN,1639969005
miercurea sibiului,45.8833,23.8,37.31,95,100,11.07,RO,1639969005
corn island,12.1694,-83.0418,81.32,80,13,16.4,NI,1639969005
coachella,33.6803,-116.1739,60.35,30,0,0.56,US,1639969005
guarapari,-20.6667,-40.4975,69.69,86,77,3.27,BR,1639969006
umm lajj,25.0213,37.2685,65.59,54,98,9.31,SA,1639969006
fukue,32.6881,128.8419,53.96,58,75,2.3,JP,1639969006
fort smith,35.3859,-94.3986,37.35,81,60,3.0,US,1639969006
ribeira grande,38.5167,-28.7,60.58,58,100,35.19,PT,1639969007
shitanjing,39.2342,106.3439,33.94,18,0,12.86,CN,1639969037
szabadbattyan,47.119,18.3682,39.88,90,63,19.04,HU,1639969038
horki,54.2861,30.9842,22.48,87,99,13.35,BY,1639969038
mangrol,21.1167,70.1167,66.15,35,89,8.39,IN,1639969038
makakilo city,21.3469,-158.0858,73.69,76,100,20.45,US,1639969038
brae,60.3964,-1.353,39.11,68,100,4.34,GB,1639969039
shimoda,34.6667,138.95,51.1,58,65,1.36,JP,1639969039
loa janan,-0.583,117.095,85.35,65,100,4.7,ID,1639969034
pevek,69.7008,170.3133,-12.8,95,100,20.45,RU,1639969039
praia,14.9215,-23.5087,72.14,83,75,11.5,CV,1639969039
yulara,-25.2406,130.9889,89.44,20,0,13.8,AU,1639969040
goderich,43.7501,-81.7165,26.92,74,88,6.91,CA,1639969040
makaha,21.4694,-158.2175,75.06,75,100,15.77,US,1639969040
cabo san lucas,22.8909,-109.9124,71.15,76,2,4.43,MX,1639969040
ledyard,41.4398,-72.0142,28.29,67,0,1.01,US,1639969041
rafraf,37.1904,10.1837,43.11,75,0,6.78,TN,1639969041
padang,-0.9492,100.3543,73.45,79,99,2.21,ID,1639969041
zaysan,47.4667,84.8667,24.98,86,100,1.72,KZ,1639969041
nurota,40.5614,65.6886,39.29,60,0,5.91,UZ,1639969041
huanren,41.2647,125.3667,31.35,72,12,5.57,CN,1639969042
seydi,39.4816,62.9137,47.82,55,0,7.7,TM,1639969042
dom pedrito,-30.9828,-54.6731,72.45,71,3,7.49,BR,1639969043
baruun-urt,46.6806,113.2792,12.9,73,66,9.91,MN,1639969043
ayame,5.6083,-3.1563,74.19,89,33,2.1,CI,1639969043
tautira,-17.7333,-149.15,82.42,74,44,13.82,PF,1639969043
laredo,27.5064,-99.5075,46.4,81,90,4.61,US,1639969043
camana,-16.6228,-72.7111,67.84,86,95,5.39,PE,1639969044
wyndham,37.6985,-77.6125,37.45,71,20,1.01,US,1639969044
santa marta,11.2408,-74.199,84.25,64,40,13.0,CO,1639968978
takoradi,4.8845,-1.7554,79.09,75,89,4.59,GH,1639968931
auki,-8.7676,160.7034,83.17,81,72,6.64,SB,1639969045
bilibino,68.0546,166.4372,-25.58,99,100,6.82,RU,1639969045
naron,43.5167,-8.1528,54.55,72,98,7.67,ES,1639969046
oyama,36.3,139.8,51.89,41,3,1.25,JP,1639968835
hudiksvall,61.729,17.1036,27.34,83,82,7.76,SE,1639969046
kidal,18.4411,1.4078,62.19,23,54,13.53,ML,1639969046
olga,43.7444,135.2892,23.81,41,88,3.04,RU,1639969047
aitape,-3.1374,142.3475,81.57,82,100,6.96,PG,1639969047
kruisfontein,-34.0033,24.7314,62.89,95,100,8.99,ZA,1639969047
portland,45.5234,-122.6762,42.24,94,90,1.99,US,1639969047
katangli,51.7102,143.2326,4.64,83,82,7.25,RU,1639969047
hornepayne,49.2138,-84.7705,26.65,82,100,16.13,CA,1639969048
sistranda,63.7256,8.834,40.89,63,100,16.51,NO,1639969048
samarai,-10.6167,150.6667,83.26,72,96,8.97,PG,1639969048
salinas,36.6777,-121.6555,52.92,86,41,0.49,US,1639969048
shache,38.4167,77.2406,24.28,51,19,3.29,CN,1639969079
berlevag,70.8578,29.0864,28.98,63,100,20.38,NO,1639969079
barra do corda,-5.5,-45.25,74.37,96,100,2.62,BR,1639969079
shingu,33.7333,135.9833,52.79,45,4,5.06,JP,1639969079
senador jose porfirio,-2.5908,-51.9542,74.73,97,100,2.17,BR,1639969080
aykhal,66.0,111.5,-19.14,98,100,7.72,RU,1639969080
chernyshevskiy,63.0128,112.4714,-46.37,100,83,2.71,RU,1639969080
saint-francois,46.4154,3.9054,34.48,100,90,1.14,FR,1639969080
miyako,39.6367,141.9525,41.34,41,55,9.66,JP,1639969080
manado,1.487,124.8455,77.77,94,20,2.3,ID,1639969081
shiyan,32.6475,110.7781,54.41,51,2,6.62,CN,1639968908
iranshahr,27.2025,60.6848,53.94,62,0,6.91,IR,1639969081
ayr,55.4627,-4.6339,43.11,91,15,7.38,GB,1639969081
parkland,47.1554,-122.434,40.68,93,1,5.01,US,1639969082
lorengau,-2.0226,147.2712,83.37,80,100,12.12,PG,1639969082
seddon,-37.8068,144.8916,83.61,42,0,5.99,AU,1639969082
tjome,59.1109,10.3933,38.14,50,4,13.8,NO,1639969082
aktau,43.65,51.2,37.98,86,77,12.01,KZ,1639969082
lagoa,39.05,-27.9833,56.84,81,100,38.95,PT,1639969083
uzhur,55.3036,89.8339,9.54,95,100,5.26,RU,1639969083
atambua,-9.1061,124.8925,82.38,70,100,4.27,ID,1639969083
behbahan,30.5959,50.2417,66.16,70,100,8.14,IR,1639969083
sangar,63.9242,127.4739,-31.38,96,100,1.39,RU,1639969084
hibbing,47.4272,-92.9377,22.6,25,100,9.95,US,1639969084
avera,33.194,-82.5271,51.71,82,100,12.97,US,1639969084
ixtapa,20.7,-105.2,74.23,90,20,2.13,MX,1639969084
royan,45.6285,-1.0281,34.09,84,0,8.46,FR,1639969085
douentza,14.9951,-2.9517,65.97,14,59,4.18,ML,1639969085
rabo de peixe,37.8,-25.5833,56.71,98,75,19.57,PT,1639969085
farafangana,-22.8167,47.8333,70.45,84,100,6.17,MG,1639969085
vanimo,-2.6741,141.3028,86.54,65,95,8.68,PG,1639969086
batagay,67.6333,134.6333,-49.23,99,49,2.62,RU,1639969086
sioux lookout,50.1001,-91.917,19.78,86,90,12.66,CA,1639969086
vao,-22.6667,167.4833,77.13,87,65,15.61,NC,1639969086
osorno,-40.5667,-73.15,61.11,77,0,5.75,CL,1639969086
karacakoy,41.4029,28.3834,42.84,71,100,10.63,TR,1639969085
kita,13.0349,-9.4895,74.48,16,42,8.99,ML,1639969087
labuhan,-6.8844,112.2051,82.89,75,100,4.43,ID,1639969087
zhangye,38.9342,100.4517,33.44,28,0,8.32,CN,1639969087
el campo,29.1966,-96.2697,52.92,76,90,8.05,US,1639969088
iturama,-19.7281,-50.1956,71.65,90,11,5.82,BR,1639969088
monzon,41.9108,0.1941,47.44,79,0,3.33,ES,1639969088
petropavlovsk-kamchatskiy,53.0452,158.6483,18.19,86,75,8.95,RU,1639969088
sheltozero,61.3667,35.3667,7.75,88,95,18.03,RU,1639969088
tiznit,29.5833,-9.5,58.24,71,13,9.22,MA,1639969089
bacong,9.2464,123.2956,84.2,74,96,12.5,PH,1639969089
astaneh-ye ashrafiyeh,37.2596,49.9444,51.73,54,0,3.96,IR,1639969089
itarema,-2.9248,-39.9167,79.57,77,99,11.48,BR,1639969089
poso,-1.3959,120.7524,86.54,65,86,4.68,ID,1639969120
birin,26.8865,88.0718,52.45,41,0,1.25,NP,1639969120
sinnamary,5.3833,-52.95,77.92,88,84,6.53,GF,1639969120
neuquen,-38.9516,-68.0591,75.09,53,0,0.0,AR,1639969120
viedma,-40.8135,-62.9967,64.33,76,34,16.33,AR,1639969120
rawson,-43.3002,-65.1023,57.61,68,3,18.99,AR,1639969121
tura,25.5198,90.2201,64.67,50,0,0.94,IN,1639969121
boksburg,-26.212,28.2596,55.78,96,35,4.76,ZA,1639969121
porangatu,-13.4408,-49.1486,71.64,95,41,1.34,BR,1639969121
shelburne,44.0787,-80.2041,17.49,90,19,4.65,CA,1639969121
boguchany,58.3814,97.4531,-44.48,100,53,2.33,RU,1639969122
mazagao,-0.115,-51.2894,82.45,94,97,3.94,BR,1639969122
mushie,-3.0167,16.9,76.14,81,99,0.89,CD,1639969122
rafai,4.95,23.9167,72.73,47,96,2.71,CF,1639969122
kargopol,61.5071,38.9456,-3.93,93,99,10.29,RU,1639969123
eshowe,-28.8865,31.4699,57.25,92,66,2.15,ZA,1639969123
cayenne,4.9333,-52.3333,81.09,84,20,0.0,GF,1639969117
palm springs,33.8303,-116.5453,58.6,35,0,0.38,US,1639969123
lodwar,3.1191,35.5973,81.43,57,98,5.37,KE,1639969123
phalaborwa,-23.943,31.1411,65.48,80,98,1.05,ZA,1639969124
manama,26.2154,50.5832,71.58,82,0,6.91,BH,1639968979
alta floresta,-9.8756,-56.0861,72.16,98,100,2.21,BR,1639969124
carutapera,-1.195,-46.02,79.25,80,100,6.44,BR,1639969124
eucaliptus,-17.5833,-67.5167,49.28,69,97,8.01,BO,1639969125
chitral,35.8462,71.7858,37.62,41,29,7.36,PK,1639969125
pilar,-9.5972,-35.9567,76.93,87,79,5.5,BR,1639969118
boo,59.3333,18.2833,30.97,70,75,11.5,SE,1639969125
halifax,44.6453,-63.5724,28.42,89,23,3.0,CA,1639969125
riom,45.9167,2.9167,24.19,75,0,1.36,FR,1639969126
saint pete beach,27.7253,-82.7412,74.17,86,93,8.12,US,1639969126
nanning,22.8167,108.3167,54.05,37,100,6.55,CN,1639969126
